% (x/y/z-ecef=WGS84,Q=1:fix,2:float,3:sbas,4:dgps,5:single,6:ppp,ns=# of satellites)
%  GPST                      x-ecef(m)      y-ecef(m)      z-ecef(m)   Q  ns   sdx(m)   sdy(m)   sdz(m)  sdxy(m)  sdyz(m)  sdzx(m) age(s)  ratio
2019/03/01 02:58:02.000  -2130199.4356   4557736.6634   3907345.0970   5   6   9.3270  10.0043   8.5677  -8.2015   7.8347  -6.5211   0.00    0.0
2019/03/01 02:58:03.000  -2130199.2024   4557736.7274   3907345.7802   5   6   9.3276  10.0025   8.5658  -8.2006   7.8326  -6.5199   0.00    0.0
2019/03/01 02:58:04.000  -2130199.0244   4557736.2523   3907345.4324   5   6   9.3281  10.0007   8.5640  -8.1998   7.8305  -6.5187   0.00    0.0
2019/03/01 02:58:05.000  -2130199.4341   4557736.9845   3907346.0777   5   6   9.3286   9.9989   8.5621  -8.1990   7.8284  -6.5175   0.00    0.0
2019/03/01 02:58:06.000  -2130198.3784   4557736.2979   3907345.8466   5   6   9.3292   9.9971   8.5603  -8.1981   7.8263  -6.5163   0.00    0.0
2019/03/01 02:58:07.000  -2130198.8584   4557736.0705   3907345.6422   5   6   9.3297   9.9953   8.5584  -8.1973   7.8242  -6.5151   0.00    0.0
2019/03/01 02:58:08.000  -2130198.9137   4557736.4991   3907346.0431   5   6   9.3302   9.9935   8.5566  -8.1965   7.8222  -6.5139   0.00    0.0
2019/03/01 02:58:09.000  -2130199.2914   4557736.9392   3907346.2394   5   6   9.3307   9.9917   8.5547  -8.1956   7.8201  -6.5127   0.00    0.0
2019/03/01 02:58:10.000  -2130199.0391   4557736.3840   3907345.8166   5   6   9.3313   9.9899   8.5529  -8.1948   7.8180  -6.5114   0.00    0.0
2019/03/01 02:58:11.000  -2130198.7425   4557736.6712   3907346.4206   5   6   9.3318   9.9881   8.5510  -8.1940   7.8159  -6.5102   0.00    0.0
2019/03/01 02:58:12.000  -2130199.4384   4557737.1546   3907346.4372   5   6   9.3323   9.9863   8.5492  -8.1932   7.8138  -6.5090   0.00    0.0
2019/03/01 02:58:13.000  -2130199.3469   4557737.3080   3907346.5372   5   6   9.3328   9.9846   8.5473  -8.1923   7.8117  -6.5078   0.00    0.0
2019/03/01 02:58:14.000  -2130198.4429   4557736.5434   3907345.7872   5   6   9.3334   9.9828   8.5455  -8.1915   7.8096  -6.5066   0.00    0.0
2019/03/01 02:58:15.000  -2130198.7004   4557736.1810   3907345.7914   5   6   9.3339   9.9810   8.5437  -8.1907   7.8075  -6.5054   0.00    0.0
2019/03/01 02:58:16.000  -2130199.7589   4557737.3491   3907346.6211   5   6   9.3344   9.9792   8.5418  -8.1898   7.8054  -6.5042   0.00    0.0
2019/03/01 02:58:17.000  -2130199.6138   4557736.9397   3907345.6378   5   6   9.3349   9.9774   8.5400  -8.1890   7.8033  -6.5030   0.00    0.0
2019/03/01 02:58:18.000  -2130199.3994   4557736.6807   3907345.7682   5   6   9.3355   9.9756   8.5381  -8.1882   7.8012  -6.5018   0.00    0.0
2019/03/01 02:58:19.000  -2130199.8107   4557737.1278   3907345.9445   5   6   9.3360   9.9738   8.5363  -8.1873   7.7991  -6.5006   0.00    0.0
2019/03/01 02:58:20.000  -2130198.4036   4557736.4461   3907345.5732   5   6   9.3365   9.9721   8.5345  -8.1865   7.7970  -6.4994   0.00    0.0
2019/03/01 02:58:21.000  -2130198.3723   4557736.0670   3907345.4637   5   6   9.3370   9.9703   8.5326  -8.1857   7.7949  -6.4982   0.00    0.0
2019/03/01 02:58:22.000  -2130198.6258   4557736.6640   3907346.0438   5   6   9.3376   9.9685   8.5308  -8.1848   7.7928  -6.4970   0.00    0.0
2019/03/01 02:58:23.000  -2130199.2631   4557736.8716   3907345.7059   5   6   9.3381   9.9667   8.5290  -8.1840   7.7908  -6.4958   0.00    0.0
2019/03/01 02:58:24.000  -2130199.1609   4557736.7407   3907345.1973   5   6   9.3386   9.9649   8.5271  -8.1832   7.7887  -6.4946   0.00    0.0
2019/03/01 02:58:25.000  -2130199.4509   4557737.0453   3907345.6061   5   6   9.3391   9.9631   8.5253  -8.1823   7.7866  -6.4934   0.00    0.0
2019/03/01 02:58:26.000  -2130199.1867   4557736.5446   3907345.3414   5   6   9.3397   9.9613   8.5235  -8.1815   7.7845  -6.4921   0.00    0.0
2019/03/01 02:58:27.000  -2130199.0605   4557736.4663   3907345.1558   5   6   9.3402   9.9596   8.5216  -8.1807   7.7824  -6.4909   0.00    0.0
